ID|Municipio|UF|Latitude|Longitude
1|ADAMANTINA|SP|-21.6850|-51.0730
2|ADOLFO|SP|-21.2350|-49.6440
3|AGUAI|SP|-22.0590|-46.9790
4|AGUAS DA PRATA|SP|-21.9370|-46.7170
5|AGUAS DE LINDOIA|SP|-22.4760|-46.6330
6|AGUAS DE SANTA BARBARA|SP|-22.8810|-49.2390
7|AGUAS DE SAO PEDRO|SP|-22.5990|-47.8760
8|AGUDOS|SP|-22.4690|-48.9880
9|ALAMBARI|SP|-23.5510|-47.8990
10|ALFREDO MARCONDES|SP|-21.9550|-51.4130
11|ALTAIR|SP|-20.5240|-49.0590
12|ALTINOPOLIS|SP|-21.0260|-47.3740
13|ALTO ALEGRE|SP|-21.5810|-50.1640
14|ALUMINIO|SP|-23.5350|-47.2620
15|ALVARES FLORENCE|SP|-20.3210|-49.9110
16|ALVARES MACHADO|SP|-22.0790|-51.4720
17|ALVARO DE CARVALHO|SP|-22.0890|-49.7190
18|ALVINLANDIA|SP|-22.4440|-49.7630
19|AMERICANA|SP|-22.7390|-47.3310
20|AMERICO BRASILIENSE|SP|-21.7240|-48.1020
21|AMERICO DE CAMPOS|SP|-20.2990|-49.7320
22|AMPARO|SP|-22.7010|-46.7640
23|ANALANDIA|SP|-22.1260|-47.6630
24|ANDRADINA|SP|-20.8960|-51.3790
25|ANGATUBA|SP|-23.4900|-48.4130
26|ANHEMBI|SP|-22.7890|-48.1270
27|ANHUMAS|SP|-22.2950|-51.3870
28|APARECIDA|SP|-22.8470|-45.2300
29|APARECIDA D'OESTE|SP|-20.4490|-50.8800
30|APIAI|SP|-24.5090|-48.8430
31|ARACARIGUAMA|SP|-23.4390|-47.0610
32|ARACATUBA|SP|-21.2090|-50.4330
33|ARACOIABA DA SERRA|SP|-23.5050|-47.6140
34|ARAMINA|SP|-20.0900|-47.7860
35|ARANDU|SP|-23.1340|-49.0540
36|ARAPEI|SP|-22.6740|-44.4480
37|ARARAQUARA|SP|-21.7940|-48.1760
38|ARARAS|SP|-22.3570|-47.3840
39|ARCO-IRIS|SP|-21.7730|-50.4650
40|AREALVA|SP|-22.0290|-48.9110
41|AREIAS|SP|-22.5800|-44.6970
42|AREIOPOLIS|SP|-22.6680|-48.6650
43|ARIRANHA|SP|-21.1880|-48.7870
44|ARTUR NOGUEIRA|SP|-22.5730|-47.1730
45|ARUJA|SP|-23.3960|-46.3210
46|ASPASIA|SP|-20.1590|-50.7330
47|ASSIS|SP|-22.6620|-50.4120
48|ATIBAIA|SP|-23.1170|-46.5500
49|AURIFLAMA|SP|-20.6860|-50.5550
50|AVAI|SP|-22.1470|-49.3330
51|AVANHANDAVA|SP|-21.4610|-49.9500
52|AVARE|SP|-23.0990|-48.9260
53|BADY BASSITT|SP|-20.9180|-49.4450
54|BALBINOS|SP|-21.9000|-49.3570
55|BALSAMO|SP|-20.7350|-49.5840
56|BANANAL|SP|-22.6840|-44.3230
57|BARAO DE ANTONINA|SP|-23.6270|-49.5610
58|BARBOSA|SP|-21.2670|-49.9490
59|BARIRI|SP|-22.0740|-48.7400
60|BARRA BONITA|SP|-22.4950|-48.5580
61|BARRA DO CHAPEU|SP|-24.4730|-49.0250
62|BARRA DO TURVO|SP|-24.7560|-48.5050
63|BARRETOS|SP|-20.5570|-48.5680
64|BARRINHA|SP|-21.1940|-48.1640
65|BARUERI|SP|-23.5110|-46.8760
66|BASTOS|SP|-21.9220|-50.7340
67|BATATAIS|SP|-20.8910|-47.5850
68|BAURU|SP|-22.3150|-49.0610
69|BEBEDOURO|SP|-20.9490|-48.4790
70|BENTO DE ABREU|SP|-21.2710|-50.8120
71|BERNARDINO DE CAMPOS|SP|-23.0130|-49.4740
72|BERTIOGA|SP|-23.8540|-46.1390
73|BILAC|SP|-21.4030|-50.4710
74|BIRIGUI|SP|-21.2890|-50.3400
75|BIRITIBA-MIRIM|SP|-23.5730|-46.0390
76|BOA ESPERANCA DO SUL|SP|-21.9930|-48.3910
77|BOCAINA|SP|-22.1360|-48.5180
78|BOFETE|SP|-23.1020|-48.2580
79|BOITUVA|SP|-23.2830|-47.6720
80|BOM JESUS DOS PERDOES|SP|-23.1350|-46.4650
81|BOM SUCESSO DE ITARARE|SP|-24.3180|-49.1440
82|BORA|SP|-22.2700|-50.5340
83|BORACEIA|SP|-22.1930|-48.7790
84|BORBOREMA|SP|-21.6200|-49.0740
85|BOREBI|SP|-22.5690|-48.9710
86|BOTUCATU|SP|-22.8860|-48.4450
87|BRAGANCA PAULISTA|SP|-22.9520|-46.5420
88|BRAUNA|SP|-21.4990|-50.3160
89|BREJO ALEGRE|SP|-21.1660|-50.1850
90|BRODOWSKI|SP|-20.9910|-47.6590
91|BROTAS|SP|-22.2840|-48.1270
92|BURI|SP|-23.7980|-48.5930
93|BURITAMA|SP|-21.0660|-50.1470
94|BURITIZAL|SP|-20.1910|-47.7080
95|CABRALIA PAULISTA|SP|-22.4560|-49.3380
96|CABREUVA|SP|-23.3080|-47.1330
97|CACAPAVA|SP|-23.1010|-45.7070
98|CACHOEIRA PAULISTA|SP|-22.6650|-45.0090
99|CACONDE|SP|-21.5290|-46.6440
100|CAFELANDIA|SP|-21.8030|-49.6100
101|CAIABU|SP|-22.0120|-51.2360
102|CAIEIRAS|SP|-23.3640|-46.7410
103|CAIUA|SP|-21.8320|-51.9980
104|CAJAMAR|SP|-23.3560|-46.8770
105|CAJATI|SP|-24.7360|-48.1230
106|CAJOBI|SP|-20.8800|-48.8090
107|CAJURU|SP|-21.2750|-47.3040
108|CAMPINA DO MONTE ALEGRE|SP|-23.5920|-48.4770
109|CAMPINAS|SP|-22.9060|-47.0610
110|CAMPO LIMPO PAULISTA|SP|-23.2060|-46.7840
111|CAMPOS DO JORDAO|SP|-22.7390|-45.5910
112|CAMPOS NOVOS PAULISTA|SP|-22.6030|-50.0030
113|CANANEIA|SP|-25.0150|-47.9270
114|CANAS|SP|-22.7040|-45.0550
115|CANDIDO MOTA|SP|-22.7460|-50.3870
116|CANDIDO RODRIGUES|SP|-21.3250|-48.6310
117|CANITAR|SP|-23.0060|-49.7830
118|CAPAO BONITO|SP|-24.0060|-48.3490
119|CAPELA DO ALTO|SP|-23.4710|-47.7350
120|CAPIVARI|SP|-22.9950|-47.5080
121|CARAGUATATUBA|SP|-23.6200|-45.4130
122|CARAPICUIBA|SP|-23.5230|-46.8360
123|CARDOSO|SP|-20.0820|-49.9140
124|CASA BRANCA|SP|-21.7740|-47.0860
125|CASSIA DOS COQUEIROS|SP|-21.2830|-47.1700
126|CASTILHO|SP|-20.8720|-51.4880
127|CATANDUVA|SP|-21.1380|-48.9730
128|CATIGUA|SP|-21.0490|-49.0580
129|CEDRAL|SP|-20.9030|-49.2680
130|CERQUEIRA CESAR|SP|-23.0360|-49.1660
131|CERQUILHO|SP|-23.1650|-47.7440
132|CESARIO LANGE|SP|-23.2270|-47.9530
133|CHARQUEADA|SP|-22.5100|-47.7780
134|CHAVANTES|SP|-23.0390|-49.7090
135|CLEMENTINA|SP|-21.5600|-50.4490
136|COLINA|SP|-20.7130|-48.5410
137|COLOMBIA|SP|-20.1760|-48.6890
138|CONCHAL|SP|-22.3300|-47.1730
139|CONCHAS|SP|-23.0150|-48.0110
140|CORDEIROPOLIS|SP|-22.4820|-47.4570
141|COROADOS|SP|-21.3520|-50.2810
142|CORONEL MACEDO|SP|-23.6310|-49.3140
143|CORUMBATAI|SP|-22.2200|-47.6260
144|COSMOPOLIS|SP|-22.6460|-47.1960
145|COSMORAMA|SP|-20.4780|-49.7780
146|COTIA|SP|-23.6040|-46.9190
147|CRAVINHOS|SP|-21.3400|-47.7290
148|CRISTAIS PAULISTA|SP|-20.3970|-47.4200
149|CRUZALIA|SP|-22.6770|-50.7940
150|CRUZEIRO|SP|-22.5760|-44.9630
151|CUBATAO|SP|-23.8950|-46.4250
152|CUNHA|SP|-23.0740|-44.9600
153|DESCALVADO|SP|-21.9040|-47.6190
154|DIADEMA|SP|-23.6860|-46.6230
155|DIRCE REIS|SP|-20.4660|-50.6060
156|DIVINOLANDIA|SP|-21.6610|-46.7390
157|DOBRADA|SP|-21.5170|-48.3940
158|DOIS CORREGOS|SP|-22.3660|-48.3800
159|DOLCINOPOLIS|SP|-20.1230|-50.5130
160|DOURADO|SP|-22.1000|-48.3180
161|DRACENA|SP|-21.4830|-51.5330
162|DUARTINA|SP|-22.4140|-49.4040
163|DUMONT|SP|-21.2360|-47.9730
164|ECHAPORA|SP|-22.4290|-50.2010
165|ELDORADO|SP|-24.5200|-48.1080
166|ELIAS FAUSTO|SP|-23.0430|-47.3740
167|ELISIARIO|SP|-21.1660|-49.1120
168|EMBAUBA|SP|-20.9830|-48.8360
169|EMBU DAS ARTES|SP|-23.6490|-46.8520
170|EMBU-GUACU|SP|-23.8320|-46.8110
171|EMILIANOPOLIS|SP|-21.8330|-51.4830
172|ENGENHEIRO COELHO|SP|-22.4880|-47.2150
173|ESPIRITO SANTO DO PINHAL|SP|-22.1910|-46.7410
174|ESPIRITO SANTO DO TURVO|SP|-22.6920|-49.4300
175|ESTIVA GERBI|SP|-22.2710|-46.9450
176|ESTRELA D'OESTE|SP|-20.2880|-50.4010
177|ESTRELA DO NORTE|SP|-22.4880|-51.6600
178|EUCLIDES DA CUNHA PAULISTA|SP|-22.5610|-52.5900
179|FARTURA|SP|-23.3880|-49.5100
180|FERNANDO PRESTES|SP|-21.2640|-48.6850
181|FERNANDOPOLIS|SP|-20.2840|-50.2460
182|FERNAO|SP|-22.3590|-49.5210
183|FERRAZ DE VASCONCELOS|SP|-23.5410|-46.3690
184|FLORA RICA|SP|-21.6760|-51.3840
185|FLOREAL|SP|-20.6770|-50.1450
186|FLORIDA PAULISTA|SP|-21.6150|-51.1740
187|FLORINIA|SP|-22.9030|-50.7380
188|FRANCA|SP|-20.5390|-47.4010
189|FRANCISCO MORATO|SP|-23.2820|-46.7450
190|FRANCO DA ROCHA|SP|-23.3220|-46.7270
191|GABRIEL MONTEIRO|SP|-21.5310|-50.5550
192|GALIA|SP|-22.2910|-49.5530
193|GARCA|SP|-22.2110|-49.6560
194|GASTAO VIDIGAL|SP|-20.7990|-50.1870
195|GAVIAO PEIXOTO|SP|-21.8390|-48.4950
196|GENERAL SALGADO|SP|-20.6480|-50.3610
197|GETULINA|SP|-21.7990|-49.9290
198|GLICERIO|SP|-21.3840|-50.2110
199|GUAICARA|SP|-21.6220|-49.7990
200|GUAIMBE|SP|-21.9100|-49.8970
201|GUAIRA|SP|-20.3180|-48.3110
202|GUAPIACU|SP|-20.7950|-49.2200
203|GUAPIARA|SP|-24.1850|-48.5330
204|GUARA|SP|-20.4280|-47.8240
205|GUARACAI|SP|-21.0280|-51.2070
206|GUARACI|SP|-20.4990|-48.9450
207|GUARANI D'OESTE|SP|-20.0750|-50.3390
208|GUARANTA|SP|-21.8950|-49.5900
209|GUARARAPES|SP|-21.2610|-50.6430
210|GUARAREMA|SP|-23.4150|-46.0350
211|GUARATINGUETA|SP|-22.8160|-45.1930
212|GUAREI|SP|-23.3730|-48.1840
213|GUARIBA|SP|-21.3600|-48.2280
214|GUARUJA|SP|-23.9930|-46.2560
215|GUARULHOS|SP|-23.4630|-46.5330
216|GUATAPARA|SP|-21.4970|-48.0380
217|GUZOLANDIA|SP|-20.6500|-50.6620
218|HERCULANDIA|SP|-22.0040|-50.3850
219|HOLAMBRA|SP|-22.6330|-47.0560
220|HORTOLANDIA|SP|-22.8580|-47.2200
221|IACANGA|SP|-21.8900|-49.0250
222|IACRI|SP|-21.8580|-50.6890
223|IARAS|SP|-22.8710|-49.1630
224|IBATE|SP|-21.9550|-47.9970
225|IBIRA|SP|-21.0800|-49.2410
226|IBIRAREMA|SP|-22.8180|-50.0730
227|IBITINGA|SP|-21.7580|-48.8290
228|IBIUNA|SP|-23.6560|-47.2230
229|ICEM|SP|-20.3420|-49.1950
230|IEPE|SP|-22.6610|-51.0760
231|IGARACU DO TIETE|SP|-22.5090|-48.5580
232|IGARAPAVA|SP|-20.0380|-47.7470
233|IGARATA|SP|-23.2040|-46.1560
234|IGUAPE|SP|-24.7080|-47.5550
235|ILHA COMPRIDA|SP|-24.7410|-47.5400
236|ILHA SOLTEIRA|SP|-20.4330|-51.3430
237|ILHABELA|SP|-23.7780|-45.3580
238|INDAIATUBA|SP|-23.0900|-47.2180
239|INDIANA|SP|-22.1740|-51.2520
240|INDIAPORA|SP|-19.9800|-50.2900
241|INUBIA PAULISTA|SP|-21.7700|-50.9620
242|IPAUSSU|SP|-23.0570|-49.6260
243|IPERO|SP|-23.3500|-47.6890
244|IPEUNA|SP|-22.4360|-47.7190
245|IPIGUA|SP|-20.6570|-49.3870
246|IPORANGA|SP|-24.5860|-48.5930
247|IPUA|SP|-20.4380|-48.0120
248|IRACEMAPOLIS|SP|-22.5810|-47.5190
249|IRAPUA|SP|-21.2790|-49.4090
250|IRAPURU|SP|-21.5710|-51.3450
251|ITABERA|SP|-23.8620|-49.1370
252|ITAI|SP|-23.4180|-49.0910
253|ITAJOBI|SP|-21.3180|-49.0540
254|ITAJU|SP|-21.9810|-48.8050
255|ITANHAEM|SP|-24.1830|-46.7890
256|ITAOCA|SP|-24.6400|-48.8430
257|ITAPECERICA DA SERRA|SP|-23.7170|-46.8490
258|ITAPETININGA|SP|-23.5920|-48.0530
259|ITAPEVA|SP|-23.9820|-48.8760
260|ITAPEVI|SP|-23.5490|-46.9340
261|ITAPIRA|SP|-22.4360|-46.8220
262|ITAPIRAPUA PAULISTA|SP|-24.5740|-49.1680
263|ITAPOLIS|SP|-21.5960|-48.8130
264|ITAPORANGA|SP|-23.7080|-49.4900
265|ITAPUI|SP|-22.2330|-48.7190
266|ITAPURA|SP|-20.6460|-51.5090
267|ITAQUAQUECETUBA|SP|-23.4860|-46.3480
268|ITARARE|SP|-24.1150|-49.3410
269|ITARIRI|SP|-24.2890|-47.1740
270|ITATIBA|SP|-23.0060|-46.8390
271|ITATINGA|SP|-23.1020|-48.6160
272|ITIRAPINA|SP|-22.2530|-47.8230
273|ITIRAPUA|SP|-20.6410|-47.2190
274|ITOBI|SP|-21.7370|-46.9750
275|ITU|SP|-23.2640|-47.2990
276|ITUPEVA|SP|-23.1530|-47.0580
277|ITUVERAVA|SP|-20.3390|-47.7810
278|JABORANDI|SP|-20.6880|-48.4130
279|JABOTICABAL|SP|-21.2550|-48.3220
280|JACAREI|SP|-23.3050|-45.9660
281|JACI|SP|-20.8820|-49.5700
282|JACUPIRANGA|SP|-24.6930|-48.0020
283|JAGUARIUNA|SP|-22.7060|-46.9860
284|JALES|SP|-20.2690|-50.5460
285|JAMBEIRO|SP|-23.2540|-45.6880
286|JANDIRA|SP|-23.5280|-46.9030
287|JARDINOPOLIS|SP|-21.0180|-47.7640
288|JARINU|SP|-23.1010|-46.7280
289|JAU|SP|-22.2960|-48.5580
290|JERIQUARA|SP|-20.3110|-47.5890
291|JOANOPOLIS|SP|-22.9300|-46.2760
292|JOAO RAMALHO|SP|-22.2500|-50.7680
293|JOSE BONIFACIO|SP|-21.0530|-49.6880
294|JULIO MESQUITA|SP|-22.0090|-49.7870
295|JUMIRIM|SP|-23.0870|-47.7840
296|JUNDIAI|SP|-23.1860|-46.8840
297|JUNQUEIROPOLIS|SP|-21.5150|-51.4340
298|JUQUIA|SP|-24.3210|-47.6350
299|JUQUITIBA|SP|-23.9320|-47.0680
300|LAGOINHA|SP|-23.0910|-45.1900
301|LARANJAL PAULISTA|SP|-23.0500|-47.8370
302|LAVINIA|SP|-21.1680|-51.0400
303|LAVRINHAS|SP|-22.5710|-44.9020
304|LEME|SP|-22.1860|-47.3900
305|LENCOIS PAULISTA|SP|-22.5990|-48.8000
306|LIMEIRA|SP|-22.5650|-47.4020
307|LINDOIA|SP|-22.5230|-46.6500
308|LINS|SP|-21.6790|-49.7430
309|LORENA|SP|-22.7310|-45.1250
310|LOURDES|SP|-20.9670|-50.2240
311|LOUVEIRA|SP|-23.0860|-46.9510
312|LUCELIA|SP|-21.7200|-51.0190
313|LUCIANOPOLIS|SP|-22.4310|-49.5230
314|LUIS ANTONIO|SP|-21.5550|-47.7040
315|LUIZIANIA|SP|-21.6760|-50.3270
316|LUPERCIO|SP|-22.4150|-49.8170
317|LUTECIA|SP|-22.3400|-50.3920
318|MACATUBA|SP|-22.5020|-48.7110
319|MACAUBAL|SP|-20.8060|-49.9640
320|MACEDONIA|SP|-20.1460|-50.1940
321|MAGDA|SP|-20.6440|-50.2260
322|MAIRINQUE|SP|-23.5460|-47.1830
323|MAIRIPORA|SP|-23.3190|-46.5870
324|MANDURI|SP|-23.0030|-49.3220
325|MARABA PAULISTA|SP|-22.1080|-51.9630
326|MARACAI|SP|-22.6110|-50.6670
327|MARAPOAMA|SP|-21.2590|-49.1290
328|MARIAPOLIS|SP|-21.7990|-51.1810
329|MARILIA|SP|-22.2140|-49.9460
330|MARINOPOLIS|SP|-20.4410|-50.8230
331|MARTINOPOLIS|SP|-22.1460|-51.1710
332|MATAO|SP|-21.6030|-48.3660
333|MAUA|SP|-23.6680|-46.4610
334|MENDONCA|SP|-21.1670|-49.5810
335|MERIDIANO|SP|-20.3590|-50.1730
336|MESOPOLIS|SP|-19.9660|-50.6380
337|MIGUELOPOLIS|SP|-20.1790|-48.0320
338|MINEIROS DO TIETE|SP|-22.4090|-48.4510
339|MIRA ESTRELA|SP|-19.9790|-50.1370
340|MIRACATU|SP|-24.2810|-47.4600
341|MIRANDOPOLIS|SP|-21.1340|-51.1020
342|MIRANTE DO PARANAPANEMA|SP|-22.2920|-51.9060
343|MIRASSOL|SP|-20.8190|-49.5210
344|MIRASSOLANDIA|SP|-20.6170|-49.4640
345|MOCOCA|SP|-21.4680|-47.0050
346|MOGI DAS CRUZES|SP|-23.5230|-46.1880
347|MOGI GUACU|SP|-22.3720|-46.9420
348|MOJI MIRIM|SP|-22.4320|-46.9580
349|MOMBUCA|SP|-22.9290|-47.5660
350|MONCOES|SP|-20.8500|-50.0920
351|MONGAGUA|SP|-24.0870|-46.6290
352|MONTE ALEGRE DO SUL|SP|-22.6820|-46.6810
353|MONTE ALTO|SP|-21.2610|-48.4960
354|MONTE APRAZIVEL|SP|-20.7730|-49.7140
355|MONTE AZUL PAULISTA|SP|-20.9070|-48.6410
356|MONTE CASTELO|SP|-21.2990|-51.5690
357|MONTE MOR|SP|-22.9470|-47.3160
358|MONTEIRO LOBATO|SP|-22.9570|-45.8400
359|MORRO AGUDO|SP|-20.7310|-48.0580
360|MORUNGABA|SP|-22.8800|-46.7920
361|MOTUCA|SP|-21.5080|-48.1510
362|MURUTINGA DO SUL|SP|-20.9930|-51.2780
363|NANTES|SP|-22.6210|-51.2370
364|NARANDIBA|SP|-22.4070|-51.5240
365|NATIVIDADE DA SERRA|SP|-23.3760|-45.4420
366|NAZARE PAULISTA|SP|-23.1810|-46.3950
367|NEVES PAULISTA|SP|-20.8460|-49.6300
368|NHANDEARA|SP|-20.6940|-50.0380
369|NIPOA|SP|-20.9130|-49.7780
370|NOVA ALIANCA|SP|-21.0160|-49.4960
371|NOVA CAMPINA|SP|-24.1210|-48.9040
372|NOVA CANAA PAULISTA|SP|-20.3860|-50.9490
373|NOVA CASTILHO|SP|-20.7630|-50.3430
374|NOVA EUROPA|SP|-21.7780|-48.5610
375|NOVA GRANADA|SP|-20.5340|-49.3140
376|NOVA GUATAPORANGA|SP|-21.3340|-51.6440
377|NOVA INDEPENDENCIA|SP|-21.1040|-51.4900
378|NOVA LUZITANIA|SP|-20.8560|-50.2620
379|NOVA ODESSA|SP|-22.7780|-47.2960
380|NOVAIS|SP|-20.9920|-48.9190
381|NOVO HORIZONTE|SP|-21.4680|-49.2210
382|NUPORANGA|SP|-20.7300|-47.7490
383|OCAUCU|SP|-22.4390|-49.9230
384|OLEO|SP|-22.9410|-49.3420
385|OLIMPIA|SP|-20.7370|-48.9150
386|ONDA VERDE|SP|-20.6140|-49.2990
387|ORIENTE|SP|-22.1530|-50.0910
388|ORINDIUVA|SP|-20.1820|-49.3510
389|ORLANDIA|SP|-20.7200|-47.8870
390|OSASCO|SP|-23.5330|-46.7920
391|OSCAR BRESSANE|SP|-22.3180|-50.2810
392|OSVALDO CRUZ|SP|-21.7970|-50.8900
393|OURINHOS|SP|-22.9790|-49.8710
394|OURO VERDE|SP|-21.4890|-51.7000
395|OUROESTE|SP|-20.0010|-50.3720
396|PACAEMBU|SP|-21.5620|-51.2610
397|PALESTINA|SP|-20.3900|-49.4330
398|PALMARES PAULISTA|SP|-21.0830|-48.8010
399|PALMEIRA D'OESTE|SP|-20.4160|-50.7620
400|PALMITAL|SP|-22.7890|-50.2180
401|PANORAMA|SP|-21.3560|-51.8600
402|PARAGUACU PAULISTA|SP|-22.4130|-50.5760
403|PARAIBUNA|SP|-23.3860|-45.6620
404|PARAISO|SP|-21.0160|-48.7740
405|PARANAPANEMA|SP|-23.3890|-48.7230
406|PARANAPUA|SP|-20.1030|-50.5860
407|PARAPUA|SP|-21.7830|-50.7930
408|PARDINHO|SP|-23.0810|-48.3740
409|PARIQUERA-ACU|SP|-24.7150|-47.8810
410|PARISI|SP|-20.3040|-50.0150
411|PATROCINIO PAULISTA|SP|-20.6390|-47.2820
412|PAULICEIA|SP|-21.3180|-51.8310
413|PAULINIA|SP|-22.7610|-47.1540
414|PAULISTANIA|SP|-22.5780|-49.4030
415|PAULO DE FARIA|SP|-20.0310|-49.3830
416|PEDERNEIRAS|SP|-22.3520|-48.7750
417|PEDRA BELA|SP|-22.7930|-46.4430
418|PEDRANOPOLIS|SP|-20.2480|-50.1100
419|PEDREGULHO|SP|-20.2570|-47.4770
420|PEDREIRA|SP|-22.7420|-46.9010
421|PEDRINHAS PAULISTA|SP|-22.8150|-50.7940
422|PEDRO DE TOLEDO|SP|-24.2750|-47.2330
423|PENAPOLIS|SP|-21.4200|-50.0780
424|PEREIRA BARRETO|SP|-20.6380|-51.1090
425|PEREIRAS|SP|-23.0760|-47.9760
426|PERUIBE|SP|-24.3200|-46.9980
427|PIACATU|SP|-21.5920|-50.5990
428|PIEDADE|SP|-23.7120|-47.4280
429|PILAR DO SUL|SP|-23.8130|-47.7160
430|PINDAMONHANGABA|SP|-22.9240|-45.4620
431|PINDORAMA|SP|-21.1860|-48.9070
432|PINHALZINHO|SP|-22.7790|-46.5910
433|PIQUEROBI|SP|-21.8680|-51.7290
434|PIQUETE|SP|-22.6140|-45.1760
435|PIRACAIA|SP|-23.0540|-46.3580
436|PIRACICABA|SP|-22.7250|-47.6490
437|PIRAJU|SP|-23.1940|-49.3840
438|PIRAJUI|SP|-21.9990|-49.4570
439|PIRANGI|SP|-21.0910|-48.6580
440|PIRAPORA DO BOM JESUS|SP|-23.3970|-47.0020
441|PIRAPOZINHO|SP|-22.2750|-51.5000
442|PIRASSUNUNGA|SP|-21.9960|-47.4260
443|PIRATININGA|SP|-22.4130|-49.1350
444|PITANGUEIRAS|SP|-21.0090|-48.2220
445|PLANALTO|SP|-21.0340|-49.9290
446|PLATINA|SP|-22.6380|-50.2040
447|POA|SP|-23.5280|-46.3450
448|POLONI|SP|-20.7850|-49.8240
449|POMPEIA|SP|-22.1090|-50.1720
450|PONGAI|SP|-21.7360|-49.3670
451|PONTAL|SP|-21.0230|-48.0370
452|PONTALINDA|SP|-20.4410|-50.5230
453|PONTES GESTAL|SP|-20.1670|-49.7030
454|POPULINA|SP|-19.9540|-50.5380
455|PORANGABA|SP|-23.1760|-48.1250
456|PORTO FELIZ|SP|-23.2150|-47.5240
457|PORTO FERREIRA|SP|-21.8540|-47.4790
458|POTIM|SP|-22.8430|-45.2510
459|POTIRENDABA|SP|-21.0430|-49.3770
460|PRACINHA|SP|-21.8510|-51.0870
461|PRADOPOLIS|SP|-21.3590|-48.0660
462|PRAIA GRANDE|SP|-24.0060|-46.4030
463|PRATANIA|SP|-22.8080|-48.6660
464|PRESIDENTE ALVES|SP|-22.1000|-49.4380
465|PRESIDENTE BERNARDES|SP|-22.0060|-51.5530
466|PRESIDENTE EPITACIO|SP|-21.7630|-52.1160
467|PRESIDENTE PRUDENTE|SP|-22.1260|-51.3890
468|PRESIDENTE VENCESLAU|SP|-21.8760|-51.8440
469|PROMISSAO|SP|-21.5370|-49.8580
470|QUADRA|SP|-23.2990|-48.0550
471|QUATA|SP|-22.2480|-50.6980
472|QUEIROZ|SP|-21.7990|-50.2400
473|QUELUZ|SP|-22.5370|-44.7740
474|QUINTANA|SP|-22.0730|-50.3080
475|RAFARD|SP|-23.0120|-47.5270
476|RANCHARIA|SP|-22.2290|-50.8930
477|REDENCAO DA SERRA|SP|-23.2670|-45.5370
478|REGENTE FEIJO|SP|-22.2210|-51.3030
479|REGINOPOLIS|SP|-21.8880|-49.2250
480|REGISTRO|SP|-24.4880|-47.8440
481|RESTINGA|SP|-20.6030|-47.4830
482|RIBEIRA|SP|-24.6570|-49.0090
483|RIBEIRAO BONITO|SP|-22.0670|-48.1760
484|RIBEIRAO BRANCO|SP|-24.2210|-48.7660
485|RIBEIRAO CORRENTE|SP|-20.4570|-47.5900
486|RIBEIRAO DO SUL|SP|-22.7840|-49.9340
487|RIBEIRAO DOS INDIOS|SP|-21.8370|-51.6040
488|RIBEIRAO GRANDE|SP|-24.0990|-48.3650
489|RIBEIRAO PIRES|SP|-23.7110|-46.4130
490|RIBEIRAO PRETO|SP|-21.1780|-47.8100
491|RIFAINA|SP|-20.0810|-47.4210
492|RINCAO|SP|-21.5870|-48.0710
493|RINOPOLIS|SP|-21.7260|-50.7220
494|RIO CLARO|SP|-22.4110|-47.5610
495|RIO DAS PEDRAS|SP|-22.8430|-47.6060
496|RIO GRANDE DA SERRA|SP|-23.7440|-46.3980
497|RIOLANDIA|SP|-19.9900|-49.6810
498|RIVERSUL|SP|-23.8280|-49.4290
499|ROSANA|SP|-22.5800|-53.0590
500|ROSEIRA|SP|-22.8980|-45.3050
501|RUBIACEA|SP|-21.3010|-50.7270
502|RUBINEIA|SP|-20.1790|-51.0020
503|SABINO|SP|-21.4600|-49.5780
504|SAGRES|SP|-21.8840|-50.9560
505|SALES|SP|-21.3410|-49.4850
506|SALES OLIVEIRA|SP|-20.7720|-47.8380
507|SALESOPOLIS|SP|-23.5320|-45.8460
508|SALMOURAO|SP|-21.6240|-50.8610
509|SALTINHO|SP|-22.8470|-47.6770
510|SALTO|SP|-23.2010|-47.2870
511|SALTO DE PIRAPORA|SP|-23.6490|-47.5730
512|SALTO GRANDE|SP|-22.8930|-49.9860
513|SANDOVALINA|SP|-22.4560|-51.7630
514|SANTA ADELIA|SP|-21.2430|-48.8040
515|SANTA ALBERTINA|SP|-20.0320|-50.7280
516|SANTA BARBARA D'OESTE|SP|-22.7540|-47.4140
517|SANTA BRANCA|SP|-23.3970|-45.8840
518|SANTA CLARA D'OESTE|SP|-20.0890|-50.9540
519|SANTA CRUZ DA CONCEICAO|SP|-22.1400|-47.4520
520|SANTA CRUZ DA ESPERANCA|SP|-21.2910|-47.4300
521|SANTA CRUZ DAS PALMEIRAS|SP|-21.8270|-47.2490
522|SANTA CRUZ DO RIO PARDO|SP|-22.8990|-49.6330
523|SANTA ERNESTINA|SP|-21.4630|-48.3910
524|SANTA FE DO SUL|SP|-20.2110|-50.9260
525|SANTA GERTRUDES|SP|-22.4570|-47.5300
526|SANTA ISABEL|SP|-23.3160|-46.2210
527|SANTA LUCIA|SP|-21.6850|-48.0840
528|SANTA MARIA DA SERRA|SP|-22.5670|-48.1610
529|SANTA MERCEDES|SP|-21.3510|-51.7550
530|SANTA RITA D'OESTE|SP|-20.1430|-50.8330
531|SANTA RITA DO PASSA QUATRO|SP|-21.7100|-47.4780
532|SANTA ROSA DE VITERBO|SP|-21.4730|-47.3630
533|SANTA SALETE|SP|-20.2450|-50.6880
534|SANTANA DA PONTE PENSA|SP|-20.2530|-50.7970
535|SANTANA DE PARNAIBA|SP|-23.4440|-46.9180
536|SANTO ANASTACIO|SP|-21.9770|-51.6520
537|SANTO ANDRE|SP|-23.6640|-46.5380
538|SANTO ANTONIO DA ALEGRIA|SP|-21.0870|-47.1510
539|SANTO ANTONIO DE POSSE|SP|-22.6060|-46.9190
540|SANTO ANTONIO DO ARACANGUA|SP|-20.9370|-50.4960
541|SANTO ANTONIO DO JARDIM|SP|-22.1160|-46.6800
542|SANTO ANTONIO DO PINHAL|SP|-22.8270|-45.6630
543|SANTO EXPEDITO|SP|-21.8510|-51.3920
544|SANTOPOLIS DO AGUAPEI|SP|-21.6380|-50.5000
545|SANTOS|SP|-23.9610|-46.3340
546|SAO BENTO DO SAPUCAI|SP|-22.6890|-45.7310
547|SAO BERNARDO DO CAMPO|SP|-23.6940|-46.5650
548|SAO CAETANO DO SUL|SP|-23.6230|-46.5510
549|SAO CARLOS|SP|-22.0180|-47.8910
550|SAO FRANCISCO|SP|-20.3590|-50.6970
551|SAO JOAO DA BOA VISTA|SP|-21.9690|-46.7980
552|SAO JOAO DAS DUAS PONTES|SP|-20.3890|-50.3780
553|SAO JOAO DE IRACEMA|SP|-20.5130|-50.3520
554|SAO JOAO DO PAU D'ALHO|SP|-21.2680|-51.6660
555|SAO JOAQUIM DA BARRA|SP|-20.5810|-47.8550
556|SAO JOSE DA BELA VISTA|SP|-20.5930|-47.6400
557|SAO JOSE DO BARREIRO|SP|-22.6450|-44.5780
558|SAO JOSE DO RIO PARDO|SP|-21.5960|-46.8890
559|SAO JOSE DO RIO PRETO|SP|-20.8200|-49.3790
560|SAO JOSE DOS CAMPOS|SP|-23.1790|-45.8870
561|SAO LOURENCO DA SERRA|SP|-23.8530|-46.9430
562|SAO LUIS DO PARAITINGA|SP|-23.2220|-45.3100
563|SAO MANUEL|SP|-22.7310|-48.5710
564|SAO MIGUEL ARCANJO|SP|-23.8780|-47.9970
565|SAO PAULO|SP|-23.5480|-46.6360
566|SAO PEDRO|SP|-22.5490|-47.9140
567|SAO PEDRO DO TURVO|SP|-22.7470|-49.7400
568|SAO ROQUE|SP|-23.5290|-47.1350
569|SAO SEBASTIAO|SP|-23.7600|-45.4100
570|SAO SEBASTIAO DA GRAMA|SP|-21.7110|-46.8210
571|SAO SIMAO|SP|-21.4790|-47.5510
572|SAO VICENTE|SP|-23.9630|-46.3920
573|SARAPUI|SP|-23.6410|-47.8250
574|SARUTAIA|SP|-23.2730|-49.4800
575|SEBASTIANOPOLIS DO SUL|SP|-20.6550|-49.9210
576|SERRA AZUL|SP|-21.3110|-47.5660
577|SERRA NEGRA|SP|-22.6120|-46.7010
578|SERRANA|SP|-21.2110|-47.5960
579|SERTAOZINHO|SP|-21.1380|-47.9900
580|SETE BARRAS|SP|-24.3880|-47.9260
581|SEVERINIA|SP|-20.8090|-48.8030
582|SILVEIRAS|SP|-22.6640|-44.8530
583|SOCORRO|SP|-22.5910|-46.5290
584|SOROCABA|SP|-23.5020|-47.4580
585|SUD MENNUCCI|SP|-20.6910|-50.9240
586|SUMARE|SP|-22.8220|-47.2670
587|SUZANAPOLIS|SP|-20.5010|-51.0250
588|SUZANO|SP|-23.5430|-46.3110
589|TABAPUA|SP|-20.9640|-49.0320
590|TABATINGA|SP|-21.7170|-48.6880
591|TABOAO DA SERRA|SP|-23.6020|-46.7530
592|TACIBA|SP|-22.3900|-51.2850
593|TAGUAI|SP|-23.4520|-49.4090
594|TAIACU|SP|-21.1440|-48.5130
595|TAIUVA|SP|-21.1240|-48.4520
596|TAMBAU|SP|-21.7050|-47.2740
597|TANABI|SP|-20.6260|-49.6490
598|TAPIRAI|SP|-23.9640|-47.5070
599|TAPIRATIBA|SP|-21.4680|-46.7490
600|TAQUARAL|SP|-21.0720|-48.4100
601|TAQUARITINGA|SP|-21.4060|-48.5050
602|TAQUARITUBA|SP|-23.5330|-49.2440
603|TAQUARIVAI|SP|-23.9240|-48.6930
604|TARABAI|SP|-22.3030|-51.5590
605|TARUMA|SP|-22.7470|-50.5770
606|TATUI|SP|-23.3560|-47.8570
607|TAUBATE|SP|-23.0260|-45.5550
608|TEJUPA|SP|-23.3430|-49.3760
609|TEODORO SAMPAIO|SP|-22.5330|-52.1680
610|TERRA ROXA|SP|-20.7890|-48.3300
611|TIETE|SP|-23.1020|-47.7150
612|TIMBURI|SP|-23.2050|-49.6070
613|TORRE DE PEDRA|SP|-23.2440|-48.1950
614|TORRINHA|SP|-22.4260|-48.1690
615|TRABIJU|SP|-22.0420|-48.3360
616|TREMEMBE|SP|-22.9580|-45.5490
617|TRES FRONTEIRAS|SP|-20.2350|-50.8900
618|TUIUTI|SP|-22.8160|-46.6940
619|TUPA|SP|-21.9350|-50.5140
620|TUPI PAULISTA|SP|-21.3810|-51.5710
621|TURIUBA|SP|-20.9330|-50.1080
622|TURMALINA|SP|-20.0520|-50.4760
623|UBARANA|SP|-21.1660|-49.7180
624|UBATUBA|SP|-23.4340|-45.0710
625|UBIRAJARA|SP|-22.5270|-49.6630
626|UCHOA|SP|-20.9530|-49.1750
627|UNIAO PAULISTA|SP|-20.8870|-49.8970
628|URANIA|SP|-20.2460|-50.6430
629|URU|SP|-21.7840|-49.2810
630|URUPES|SP|-21.2020|-49.2900
631|VALENTIM GENTIL|SP|-20.4220|-50.0880
632|VALINHOS|SP|-22.9710|-46.9960
633|VALPARAISO|SP|-21.2280|-50.8680
634|VARGEM|SP|-22.8890|-46.4140
635|VARGEM GRANDE DO SUL|SP|-21.8320|-46.8940
636|VARGEM GRANDE PAULISTA|SP|-23.6030|-47.0260
637|VARZEA PAULISTA|SP|-23.2110|-46.8280
638|VERA CRUZ|SP|-22.2200|-49.8190
639|VINHEDO|SP|-23.0300|-46.9750
640|VIRADOURO|SP|-20.8730|-48.2970
641|VISTA ALEGRE DO ALTO|SP|-21.1710|-48.6290
642|VITORIA BRASIL|SP|-20.1970|-50.4840
643|VOTORANTIM|SP|-23.5470|-47.4380
644|VOTUPORANGA|SP|-20.4230|-49.9730
645|ZACARIAS|SP|-21.0520|-50.0510
